{"Barcelona":[{"name":"Mandarin Oriental, Barcelona","lat":"41.391238","lon":"2.166705","street":"Passeig de Gràcia 18","zip":"08007","tags":["isGym","isSwimmingPoolOutdoor","isSwimmingPoolIndoor","isSwimmingPool","isSteamBath","isSpa","isRooftopPool","isRooftopBar","isRatingMichelinTwo","isPrivateButlerPart","isJochenVisited","isHamam","isFinalCheck","isCoordinatesChecked","isCity","isT6"]},{"name":"Claris","lat":"41.394494","lon":"2.165264","street":"Pau Claris, 150","zip":"08009","tags":["isGym","isDesignAward","isSwimmingPoolOutdoor","isSwimmingPool","isSauna","isSLH","isRooftopPool","isRooftopBar","isPetFriendly","isJochenVisited","isFinalCheck","isDesign","isCoordinatesChecked","isCity"]},{"name":"W Barcelona","lat":"41.368541","lon":"2.189814","street":"Placa de la Rosa dels Vents, 1, Final Passeig de Joan de Borbo","zip":"08039","tags":["isGym","isSwimmingPoolOutdoor","isSwimmingPool","isSteamBath","isSpa","isSauna","isRooftopBar","isJochenVisited","isFloorToCeilingWindows","isFinalCheck","isDesign","isCoordinatesChecked","isCity","isBeachNearby","isT6"]},{"name":"Hotel Arts Barcelona","lat":"41.386621","lon":"2.196202","street":"Marina 19-21","zip":"8005","tags":["isGym","isGarden","isSwimmingPoolOutdoor","isSwimmingPool","isSteamBath","isSpa","isSauna","isRooftopSpa","isRatingMichelinTwo","isNightclub","isJochenVisited","isFinalCheck","isCoordinatesChecked","isCity","isBeachNearby","isT6"]},{"name":"Alma Barcelona","lat":"41.394505","lon":"2.163331","street":"Mallorca 269-271","zip":"08008","tags":["isGym","isGarden","isSwimmingPoolIndoor","isSwimmingPool","isSteamBath","isSpa","isSmokeFree","isSauna","isRooftopBar","isJochenVisited","isFinalCheck","isDesign","isCoordinatesChecked","isCity","isBoutique"]},{"name":"Hotel Omm","lat":"41.39615","lon":"2.1609","street":"Rosselló, 265","zip":"08008","tags":["isGym","isDesignAward","isSwimmingPoolOutdoor","isSwimmingPoolIndoor","isSwimmingPool","isSpa","isRooftopPool","isRooftopBar","isRatingMichelinOne","isNightclub","isJochenVisited","isHamam","isFinalCheck","isDesign","isCity","isBoutique"]},{"name":"Grand Hyatt Barcelona","lat":"0.0","lon":"0.0","street":null,"zip":null,"tags":["isCity"]},{"name":"Cotton House","lat":"41.3915365","lon":"2.1715908","street":"Gran Via De Les Corts Catalanes, 670","zip":"08010","tags":["isGym","isGarden","isSwimmingPoolOutdoor","isSwimmingPool","isSmokeFree","isRooftopPool","isRooftopBar","isPrivateButlerPart","isHistoric","isFinalCheck","isDesign","isCoordinatesChecked","isCity","isBoutique"]},{"name":"El Palace Barcelona","lat":"41.391395","lon":"2.171488","street":"Gran Via de les Corts Catalanes, 668","zip":"08010","tags":["isGym","isGrandHotel","isT6CityLegends","isSwimmingPoolOutdoor","isSwimmingPool","isSteamBath","isSpa","isSauna","isRooftopPool","isLHW","isJochenVisited","isHistoric","isFinalCheck","isCoordinatesChecked","isCity","isT6"]},{"name":"Monument Hotel","lat":"41.3938074","lon":"2.1622504","street":"Passeig de Gràcia, 75","zip":"08008","tags":["isGym","isSteamBath","isSpa","isSmokeFree","isSauna","isPreferredHotels","isHistoric","isFinalCheck","isCoordinatesChecked","isCity","isBoutique"]},{"name":"Gran Hotel La Florida","lat":"41.425389","lon":"2.120645","street":"Ctra Vallvidrera al Tibidabo 83-93","zip":"08035","tags":["isGym","isGarden","isSwimmingPoolOutdoor","isSwimmingPoolIndoor","isSwimmingPool","isSteamBath","isSpa","isSauna","isLHW","isJochenVisited","isHistoric","isHill","isHamam","isFinalCheck","isCoordinatesChecked","isBoutique","isT6"]},{"name":"The Serras","lat":"41.380181","lon":"2.180688","street":"Passeig de Colom, 9","zip":"08002","tags":["isGym","isDesignAward","isSwimmingPoolOutdoor","isSwimmingPool","isSmokeFree","isRooftopPool","isHistoric","isFinalCheck","isDesign","isCoordinatesChecked","isCity","isBoutique"]},{"name":"Casa Fuster","lat":"41.39798","lon":"2.158057","street":"Passeig de Gràcia 132","zip":"08008","tags":["isGym","isSwimmingPoolOutdoor","isSwimmingPool","isSauna","isRooftopPool","isLHW","isJochenVisited","isHistoric","isFinalCheck","isCoordinatesChecked","isCity","isBoutique"]},{"name":"ABaC Restaurant \u0026 Hotel","lat":"41.410481","lon":"2.136488","street":"Avinguda del Tibidabo, 1","zip":"08022","tags":["isGarden","isSpa","isSauna","isSLH","isRatingMichelinTwo","isHill","isHamam","isFinalCheck","isDesign","isCoordinatesChecked","isCity","isBoutique"]},{"name":"Ohla Hotel","lat":"41.386895","lon":"2.174358","street":"Via Laietana, 49","zip":"08003","tags":["isGym","isSwimmingPoolOutdoor","isSwimmingPool","isSpa","isSauna","isRooftopPool","isRooftopBar","isRatingMichelinOne","isPreferredHotels","isJochenVisited","isHistoric","isFinalCheck","isEco","isDesign","isCoordinatesChecked","isCity","isBoutique"]},{"name":"The Barcelona Edition","lat":"41.387917","lon":"2.1699187","street":null,"zip":null,"tags":["isRooftopBar","isNightclub","isDesign","isCity","isBoutique"]},{"name":"Hotel Miramar Barcelona","lat":"41.370274","lon":"2.171394","street":"Plaza Carlos Ibáñez, 3","zip":"08038","tags":["isGym","isGarden","isSwimmingPoolOutdoor","isSwimmingPoolIndoor","isSwimmingPool","isSpa","isSauna","isPreferredHotels","isJochenVisited","isHistoric","isHill","isHamam","isDesign","isCoordinatesChecked","isCity","isBoutique","isAllBedroomsHaveBalconies"]},{"name":"Majestic Hotel \u0026 Spa","lat":"41.393547","lon":"2.164034","street":"Paseo de Gracia, 68","zip":"08007","tags":["isGym","isT6CityLegends","isSwimmingPoolOutdoor","isSwimmingPool","isSteamBath","isSpa","isSmokeFree","isSauna","isRooftopSpa","isRooftopPool","isRooftopBar","isLHW","isJochenVisited","isHistoric","isFinalCheck","isCoordinatesChecked","isCity","isT6"]},{"name":"Mercer Barcelona","lat":"41.382586","lon":"2.178998","street":"Calle dels Lledó 7","zip":"08002","tags":["isSwimmingPoolOutdoor","isSwimmingPool","isRooftopPool","isRooftopBar","isJochenVisited","isHistoric","isFinalCheck","isDesign","isCoordinatesChecked","isCity","isBoutique"]},{"name":"ME Barcelona","lat":"41.387917","lon":"2.1699187","street":null,"zip":null,"tags":[]}],"Budapest":[{"name":"Corinthia Hotel Budapest","lat":"47.502628","lon":"19.066755","street":"Erzsébet körút 43-49","zip":"1073","tags":["isGym","isSwimmingPoolIndoor","isSwimmingPool","isSteamBath","isSpa","isSauna","isJochenVisited","isHistoric","isFinalCheck","isCoordinatesChecked","isCity"]},{"name":"Four Seasons Hotel Gresham Palace Budapest","lat":"47.499716","lon":"19.047979","street":"Roosevelt Tér 5-6","zip":"1051","tags":["isGym","isSwimmingPoolIndoor","isSwimmingPool","isSteamBath","isSpa","isSauna","isRooftopSpa","isPalace","isJochenVisited","isHistoric","isFinalCheck","isCoordinatesChecked","isCookingClasses","isCity","isT6"]},{"name":"Racz Hotel \u0026 Thermal Spa","lat":"47.491","lon":"19.043","street":"Hadnagy Utca 8-10","zip":"1013","tags":["isGym","isSwimmingPoolOutdoor","isSwimmingPoolIndoor","isSwimmingPool","isSteamBath","isSpa","isSauna","isNearbySpaFitness","isLHW","isHistoric","isHamam","isCity","isBoutique"]},{"name":"The Ritz-Carlton, Budapest","lat":"47.497425","lon":"19.053199","street":"Erzsebet Ter 9-10","zip":"1051","tags":["isGym","isSwimmingPoolIndoor","isSwimmingPool","isSpa","isSauna","isJochenVisited","isFinalCheck","isCoordinatesChecked","isCity","isAAAFiveDiamondAward"]},{"name":"Boscolo Budapest","lat":"47.4985141","lon":"19.0703917","street":"Erzsebet krt. 9-11","zip":"1073","tags":["isGym","isSwimmingPoolIndoor","isSwimmingPool","isSpa","isSauna","isJochenVisited","isHistoric","isHamam","isFinalCheck","isCoordinatesChecked","isCity"]},{"name":"Kempinski Hotel Corvinus Budapest","lat":"47.497266","lon":"19.052118","street":"Erzsébet tér 7-8","zip":"1051","tags":["isGym","isSwimmingPoolIndoor","isSwimmingPool","isSteamBath","isSpa","isSauna","isLHW","isJochenVisited","isFinalCheck","isCoordinatesChecked","isCity"]}],"Cologne":[{"name":"Excelsior Hotel Ernst","lat":"50.941835","lon":"6.956532","street":"Trankgasse 1-5, Domplatz","zip":"50667","tags":["isGym","isSteamBath","isSauna","isRatingMichelinOne","isPetFriendly","isLHW","isJochenVisited","isHistoric","isFinalCheck","isCoordinatesChecked","isCity"]},{"name":"Hotel im Wasserturm","lat":"50.931581","lon":"6.95147","street":"Kaygasse 2","zip":"50676","tags":["isSLH","isRooftopBar","isPetFriendly","isJochenVisited","isHistoric","isFinalCheck","isDesign","isCoordinatesChecked","isCity","isBoutique"]},{"name":"Dom Hotel Cologne","lat":"50.940557","lon":"6.957383","street":"Domkloster 2 a","zip":"50667","tags":["isJochenVisited","isHistoric","isFinalCheck","isCoordinatesChecked","isCity"]}],"Copenhagen":[{"name":"D'Angleterre","lat":"55.68053","lon":"12.584575","street":"34, Kongens Nytorv","zip":"1050","tags":["isGym","isGrandHotel","isSwimmingPoolIndoor","isSwimmingPool","isSpa","isSauna","isRatingMichelinOne","isLHW","isJochenVisited","isHistoric","isCoordinatesChecked","isCity","isBoutique"]},{"name":"Nimb Copenhagen","lat":"55.67355","lon":"12.566054","street":"Bernstorffsgade 5","zip":"1577","tags":["isSLH","isPalace","isHistoric","isFinalCheck","isCoordinatesChecked","isCity","isBoutique"]}],"Dresden":[{"name":"Hotel Taschenbergpalais Kempinski","lat":"51.052019","lon":"13.735866","street":"Taschenberg 3","zip":"01067","tags":["isGym","isSwimmingPoolIndoor","isSwimmingPool","isSteamBath","isSpa","isSauna","isPetFriendly","isJochenVisited","isFinalCheck","isCoordinatesChecked","isCity"]},{"name":"Bülow Palais","lat":"51.0610464","lon":"13.7419895","street":"Königstraße 14","zip":"01097","tags":["isGym","isGarden","isSteamBath","isSpa","isSauna","isRooftopSpa","isRelaisChateaux","isRatingMichelinOne","isPetFriendly","isHistoric","isFinalCheck","isCoordinatesChecked","isCity","isBoutique"]},{"name":"Hotel Suitess","lat":"51.05164","lon":"13.742483","street":"An der Frauenkirche 13","zip":"01067","tags":["isGym","isSteamBath","isSpa","isSmokeFree","isSauna","isHistoric","isFinalCheck","isCoordinatesChecked","isCity","isBoutique"]}],"Frankfurt":[{"name":"Villa Kennedy","lat":"50.09716","lon":"8.669573","street":"Kennedyallee 70","zip":"60596","tags":["isGym","isGarden","isSwimmingPoolIndoor","isSwimmingPool","isSteamBath","isSpa","isSauna","isPrivateButlerPart","isLHW","isJochenVisited","isHistoric","isFinalCheck","isCoordinatesChecked","isCity"]},{"name":"Kempinski Hotel Frankfurt Gravenbruch","lat":"50.056084","lon":"8.74832","street":"Graf zu Ysenburg und Buedingen Platz 1","zip":"63263","tags":["isGym","isGrandHotel","isGarden","isSwimmingPoolOutdoor","isSwimmingPoolIndoor","isSwimmingPool","isSteamBath","isSpa","isSauna","isRatingMichelinOne","isLake","isJochenVisited","isFinalCheck","isCountry","isCoordinatesChecked"]},{"name":"Grandhotel Hessischer Hof","lat":"50.112397","lon":"8.655872","street":"Friedrich-Ebert-Anlage 40","zip":"60325","tags":["isGym","isGrandHotel","isSteamBath","isSpa","isSauna","isRooftopSpa","isPrivateButlerPart","isPreferredHotels","isPetFriendly","isLHW","isJochenVisited","isFinalCheck","isCoordinatesChecked","isCity"]},{"name":"Steigenberger Frankfurter Hof","lat":"50.110163","lon":"8.675845","street":"Am Kaiserplatz","zip":"60311","tags":["isGym","isGrandHotel","isGarden","isT6CityLegends","isSpa","isSauna","isRatingMichelinOne","isPrivateButlerPart","isPetFriendly","isJochenVisited","isHistoric","isHamam","isFinalCheck","isCoordinatesChecked","isCity","isT6"]},{"name":"Jumeirah Frankfurt","lat":"50.114608","lon":"8.680304","street":"Thurn-und-Taxis-Platz 2","zip":"60313","tags":["isGym","isSwimmingPoolIndoor","isSwimmingPool","isSpa","isSauna","isNearbySpaFitness","isJochenVisited","isFinalCheck","isCoordinatesChecked","isCity"]},{"name":"Sofitel Frankfurt","lat":"0.0","lon":"0.0","street":null,"zip":null,"tags":["isGym","isSpa","isPrivateButlerPart","isCity"]}],"Madrid":[{"name":"The Principal Madrid","lat":"40.4192922","lon":"-3.6971407","street":"Calle Marqués de Valdeiglesias, 1","zip":"28004","tags":["isGym","isDesignAward","isSpa","isSauna","isRooftopBar","isPrivateButlerPart","isFinalCheck","isDesign","isCoordinatesChecked","isCity","isBoutique"]},{"name":"The Westin Palace, Madrid","lat":"40.415322","lon":"-3.695641","street":"Plaza de las Cortes, 7","zip":"28014","tags":["isGym","isGrandHotel","isT6CityLegends","isSauna","isRooftopSpa","isPalace","isJochenVisited","isHistoric","isFinalCheck","isCoordinatesChecked","isCity","isT6"]},{"name":"Villa Magna","lat":"40.430041","lon":"-3.688246","street":"Paseo de La Castellana, 22","zip":"28046","tags":["isGym","isGarden","isSteamBath","isSpa","isSauna","isRatingMichelinOne","isPrivateButlerPart","isLHW","isJochenVisited","isFinalCheck","isCoordinatesChecked","isCity","isT6"]},{"name":"Gran Meliá Fénix","lat":"40.426388","lon":"-3.689382","street":"Hermosilla, 2","zip":"28001","tags":["isGym","isSmokeFree","isNearbySpaFitness","isLHW","isJochenVisited","isHistoric","isFinalCheck","isCoordinatesChecked","isCity"]},{"name":"Hotel Único Madrid","lat":"40.428428","lon":"-3.686247","street":"Claudio Coello 67","zip":"28001","tags":["isGym","isGarden","isDesignAward","isSpa","isRatingMichelinTwo","isHistoric","isFinalCheck","isDesign","isCoordinatesChecked","isCity","isBoutique"]},{"name":"Hotel Ritz","lat":"40.415467","lon":"-3.692744","street":"Plaza de la Lealtad 5","zip":"28014","tags":["isGym","isGarden","isT6CityLegends","isSpa","isSauna","isPalace","isLHW","isJochenVisited","isHistoric","isFinalCheck","isCoordinatesChecked","isCity","isT6"]},{"name":"AC Palacio del Retiro","lat":"40.41775","lon":"-3.68912","street":"Alfonso XII, 14","zip":"28014","tags":["isGym","isSteamBath","isSpa","isSauna","isPrivateButlerPart","isJochenVisited","isHistoric","isFinalCheck","isCoordinatesChecked","isCity","isBoutique"]},{"name":"Hospes Madrid","lat":"40.420563","lon":"-3.689289","street":"Plaza de la Independencia, 3","zip":"28001","tags":["isGym","isGarden","isSwimmingPoolIndoor","isSwimmingPool","isSpa","isJochenVisited","isHistoric","isHamam","isFinalCheck","isDesign","isCoordinatesChecked","isCity","isBoutique"]},{"name":"AC Santo Mauro","lat":"40.430871","lon":"-3.693267","street":"C/ Zurbano, 36","zip":"28010","tags":["isGym","isGarden","isSwimmingPoolIndoor","isSwimmingPool","isSpa","isSauna","isPrivateButlerPart","isPalace","isJochenVisited","isHistoric","isHamam","isFinalCheck","isCoordinatesChecked","isCity","isBoutique","isAllBedroomsHaveBalconies"]},{"name":"Urban","lat":"40.416296","lon":"-3.698723","street":"Carrera de San Jerónimo, 34","zip":"28014","tags":["isGym","isDesignAward","isSwimmingPoolOutdoor","isSwimmingPool","isSauna","isRooftopPool","isRooftopBar","isPetFriendly","isJochenVisited","isFinalCheck","isDesign","isCoordinatesChecked","isCity"]},{"name":"Hotel Orfila","lat":"40.427454","lon":"-3.693577","street":"Orfila, 6","zip":"28010","tags":["isGarden","isRelaisChateaux","isPalace","isJochenVisited","isHistoric","isFinalCheck","isCoordinatesChecked","isCity","isBoutique"]},{"name":"W Madrid","lat":"40.417","lon":"-3.7","street":null,"zip":null,"tags":["isGym","isSwimmingPoolOutdoor","isSwimmingPool","isRooftopPool","isRooftopBar","isDesign","isCity"]},{"name":"Four Seasons Hotel Madrid","lat":"0.0","lon":"0.0","street":null,"zip":null,"tags":["isHistoric","isCity"]},{"name":"ME Madrid","lat":"40.414457","lon":"-3.701395","street":"Plaza de Santa Ana, 14","zip":"28012","tags":["isRooftopBar","isNearbySpaFitness","isJochenVisited","isHistoric","isFinalCheck","isEco","isCoordinatesChecked","isCity"]}],"Moscow":[{"name":"Bulgari Moscow","lat":"55.755786","lon":"37.617633","street":null,"zip":null,"tags":["isGym","isCity","isBoutique"]},{"name":"Hotel National, Moscow","lat":"55.7569772","lon":"37.6138895","street":"15/1 Mokhovaya Street","zip":"125009","tags":["isGym","isT6CityLegends","isSwimmingPoolIndoor","isSwimmingPool","isSpa","isSauna","isHistoric","isFinalCheck","isCoordinatesChecked","isCity","isAAAFiveDiamondAward","isT6"]},{"name":"InterContinental Moscow - Tverskaya","lat":"55.767328","lon":"37.601472","street":"Tverskaya Ulitsa 22","zip":"125009","tags":["isGym","isSpa","isSauna","isFinalCheck","isCoordinatesChecked","isCity"]},{"name":"Four Seasons Hotel Moscow","lat":"55.75714","lon":"37.617188","street":"2, Okhotny Ryad Str.","zip":"109012","tags":["isGym","isSwimmingPoolIndoor","isSwimmingPool","isSteamBath","isSpa","isSauna","isPetFriendly","isFloorToCeilingWindows","isCoordinatesChecked","isCity","isT6"]},{"name":"Lotte Hotel Moscow","lat":"55.750956","lon":"37.5841","street":"8 bld.2, Novinskiy Blvd.","zip":"121099","tags":["isGym","isSwimmingPoolIndoor","isSwimmingPool","isSpa","isSauna","isLHW","isHamam","isFinalCheck","isCoordinatesChecked","isCity"]},{"name":"Radisson Royal Hotel Moscow","lat":"55.751457","lon":"37.565346","street":"2/1, Building 1, Kutuzovskiy Prospekt","zip":"121248","tags":["isGym","isSwimmingPoolIndoor","isSwimmingPool","isSteamBath","isSpa","isSauna","isRooftopBar","isRiver","isHistoric","isHamam","isFinalCheck","isCoordinatesChecked","isCity"]},{"name":"Astrum Spa \u0026 Conference Hotel","lat":"0.0","lon":"0.0","street":"Ul. Talsinskaya 1a","zip":"141100","tags":["isMedicalSpa","isGym","isSwimmingPoolIndoor","isSwimmingPool","isSteamBath","isSpa","isSauna","isPrivateButlerPart","isLHW","isHeliport","isHamam","isCity"]},{"name":"Hotel Baltschug Kempinski Moscow","lat":"55.748356","lon":"37.62606","street":"Ul. Balchug 1","zip":"115035","tags":["isGym","isGrandHotel","isSwimmingPoolIndoor","isSwimmingPool","isSpa","isSauna","isLHW","isHistoric","isFinalCheck","isCoordinatesChecked","isCity"]},{"name":"The St. Regis Moscow Nikolskaya","lat":"55.75862","lon":"37.625926","street":"Nikolskaya 12","zip":"109012","tags":["isGym","isSwimmingPoolIndoor","isSwimmingPool","isSteamBath","isSpa","isSmokeFree","isSauna","isPrivateButler","isHistoric","isFinalCheck","isCoordinatesChecked","isCity"]},{"name":"Ararat Park Hyatt Moscow","lat":"55.7600662","lon":"37.6215017","street":"4 Neglinnaya Street","zip":"109012","tags":["isGym","isSwimmingPoolIndoor","isSwimmingPool","isSteamBath","isSpa","isSauna","isHamam","isFinalCheck","isCoordinatesChecked","isCity"]},{"name":"Delano Moscow","lat":"55.755786","lon":"37.617633","street":null,"zip":null,"tags":["isCity"]},{"name":"Mandarin Oriental Moscow","lat":"0.0","lon":"0.0","street":null,"zip":null,"tags":["isHistoric","isCity"]},{"name":"The Ritz-Carlton, Moscow","lat":"55.757574","lon":"37.6133","street":"Tverskaya Uliza 3","zip":"125009","tags":["isGym","isRatingMichelinThree","isSwimmingPoolIndoor","isSwimmingPool","isSteamBath","isSpa","isSauna","isRooftopBar","isPrivateButlerPart","isPetFriendly","isNightclub","isFloorToCeilingWindows","isFinalCheck","isCoordinatesChecked","isCookingClasses","isCity","isT6"]}],"Paris":[{"name":"Hotel San Regis","lat":"48.866473","lon":"2.308503","street":"12, Rue Jean-Goujon","zip":"75008","tags":["isSLH","isJochenVisited","isHistoric","isFinalCheck","isCoordinatesChecked","isCity","isBoutique"]},{"name":"Hotel Costes","lat":"48.866717","lon":"2.328034","street":"239, rue St. Honoré","zip":"75001","tags":["isGym","isGarden","isSwimmingPoolIndoor","isSwimmingPool","isSteamBath","isSpa","isJochenVisited","isHistoric","isFinalCheck","isDesign","isCoordinatesChecked","isCity","isBoutique"]},{"name":"Shangri-La Hotel, Paris","lat":"48.863687","lon":"2.293365","street":"10, avenue d'Iena","zip":"75116","tags":["isGym","isGarden","isSwimmingPoolIndoor","isSwimmingPool","isSteamBath","isSpa","isRatingMichelinTwo","isRatingMichelinOne","isPalace","isJochenVisited","isHistoric","isForbesFiveStars","isFinalCheck","isCoordinatesChecked","isCity","isCastle","isT6"]},{"name":"Hotel de Vendôme","lat":"48.866779","lon":"2.328472","street":"1 Place Vendôme","zip":"75001","tags":["isSLH","isJochenVisited","isHistoric","isFinalCheck","isCoordinatesChecked","isCity","isBoutique"]},{"name":"Hotel Lancaster","lat":"48.872202","lon":"2.303543","street":"7, rue de Berri","zip":"75008","tags":["isGym","isGarden","isRatingMichelinThree","isSauna","isLHW","isJochenVisited","isHistoric","isFinalCheck","isDesign","isCoordinatesChecked","isCity","isBoutique"]},{"name":"Le Meurice","lat":"48.86517","lon":"2.328101","street":"228 Rue de Rivoli","zip":"75001","tags":["isGym","isRatingMichelinThree","isT6CityLegends","isSpa","isSauna","isPetFriendly","isPalace","isJochenVisited","isHistoric","isHamam","isForbesFiveStars","isFinalCheck","isCoordinatesChecked","isCity","isT6"]},{"name":"Fauchon Hotel","lat":"0.0","lon":"0.0","street":null,"zip":null,"tags":["isCity","isBoutique"]},{"name":"Hotel de Crillon, A Rosewood Hotel","lat":"48.867313","lon":"2.321047","street":"10, Place de la Concorde","zip":"75008","tags":["isGym","isGrandHotel","isGarden","isPalace","isLHW","isJochenVisited","isHistoric","isFinalCheck","isEco","isCoordinatesChecked","isCity"]},{"name":"The Peninsula Paris","lat":"48.870655","lon":"2.293455","street":"19 Avenue Kléber","zip":"75116","tags":["isGym","isSwimmingPoolIndoor","isSwimmingPool","isSteamBath","isSpa","isSauna","isRooftopBar","isHistoric","isForbesFiveStars","isFinalCheck","isCoordinatesChecked","isCity","isT6"]},{"name":"La Réserve Paris","lat":"48.869836","lon":"2.313328","street":"42 Avenue Gabriel","zip":"75008","tags":["isGym","isSwimmingPoolIndoor","isSwimmingPool","isSteamBath","isSpa","isRatingMichelinTwo","isLHW","isForbesFiveStars","isFinalCheck","isCoordinatesChecked","isCity","isBoutique"]},{"name":"Le Bristol Paris","lat":"48.871728","lon":"2.314848","street":"112, Rue du Faubourg Saint-Honore","zip":"75008","tags":["isGym","isGrandHotel","isGarden","isRatingMichelinThree","isT6CityLegends","isSwimmingPoolIndoor","isSwimmingPool","isSpa","isSauna","isRooftopPool","isRatingMichelinOne","isPalace","isLHW","isJochenVisited","isHistoric","isForbesFiveStars","isFinalCheck","isCoordinatesChecked","isCity","isT6"]},{"name":"La Samaritaine Hotel","lat":"0.0","lon":"0.0","street":null,"zip":null,"tags":["isSpa","isCity","isBoutique"]},{"name":"Trianon Palace Versailles, A Waldorf Astoria Hotel","lat":"48.810968","lon":"2.120392","street":"1 Boulevard de la Reine","zip":"78000","tags":["isGym","isGarden","isSwimmingPoolIndoor","isSwimmingPool","isSteamBath","isSpa","isSauna","isRatingMichelinTwo","isPetFriendly","isPalace","isHistoric","isHamam","isFinalCheck","isDesign","isCoordinatesChecked"]},{"name":"Hotel Raphael","lat":"48.871357","lon":"2.293604","street":"17, Avenue Kléber","zip":"75116","tags":["isGym","isSauna","isRooftopBar","isLHW","isJochenVisited","isHistoric","isHamam","isFinalCheck","isCoordinatesChecked","isCity","isBoutique"]},{"name":"Prince de Galles, Paris","lat":"48.869171","lon":"2.300579","street":"33 Avenue George V","zip":"75008","tags":["isGym","isRatingMichelinOne","isPetFriendly","isJochenVisited","isHistoric","isHamam","isFinalCheck","isCoordinatesChecked","isCity"]},{"name":"Mandarin Oriental, Paris","lat":"48.867","lon":"2.327212","street":"251 rue Saint-Honoré","zip":"75001","tags":["isGym","isGarden","isSwimmingPoolIndoor","isSwimmingPool","isSteamBath","isSpa","isRatingMichelinTwo","isHistoric","isForbesFiveStars","isFinalCheck","isDesign","isCoordinatesChecked","isCity"]},{"name":"Ritz Paris","lat":"48.867954","lon":"2.328871","street":"15 Place Vendôme","zip":"75001","tags":["isGym","isGrandHotel","isGarden","isT6CityLegends","isSwimmingPoolIndoor","isSwimmingPool","isSteamBath","isSpa","isSmokeFree","isSauna","isPalace","isLHW","isJochenVisited","isHistoric","isHamam","isFinalCheck","isCoordinatesChecked","isCookingClasses","isCity","isT6"]},{"name":"Four Seasons Hotel George V, Paris","lat":"48.868768","lon":"2.300469","street":"31, Avenue George V","zip":"75008","tags":["isGym","isGarden","isRatingMichelinThree","isT6CityLegends","isSwimmingPoolIndoor","isSwimmingPool","isSteamBath","isSpa","isSauna","isPalace","isJochenVisited","isHistoric","isForbesFiveStars","isFinalCheck","isCoordinatesChecked","isCity","isT6"]},{"name":"Le Royal Monceau","lat":"48.87573","lon":"2.300384","street":"37 Avenue Hoche","zip":"75008","tags":["isGym","isGrandHotel","isGarden","isT6CityLegends","isSwimmingPoolIndoor","isSwimmingPool","isSpa","isSauna","isPalace","isLHW","isHistoric","isHamam","isForbesFiveStars","isFinalCheck","isDesign","isCoordinatesChecked","isCity","isT6"]},{"name":"Sofitel Paris Le Faubourg","lat":"48.868588","lon":"2.321532","street":"15, rue Boissy d'Anglas","zip":"75008","tags":["isGym","isSteamBath","isSpa","isPetFriendly","isHamam","isFinalCheck","isCoordinatesChecked","isCity"]},{"name":"W Paris - Opera","lat":"48.872282","lon":"2.333157","street":"4 rue Meyerbeer","zip":"75009","tags":["isGym","isHistoric","isFinalCheck","isDesign","isCoordinatesChecked","isCity","isBoutique"]},{"name":"Park Hyatt Paris-Vendome","lat":"48.868813","lon":"2.33055","street":"5 Rue de la Paix","zip":"75002","tags":["isGym","isGarden","isSteamBath","isSpa","isSauna","isRatingMichelinOne","isPalace","isJochenVisited","isHistoric","isHamam","isFinalCheck","isCoordinatesChecked","isCity"]},{"name":"Plaza Athénée Paris","lat":"48.866242","lon":"2.304319","street":"25 Avenue Montaigne","zip":"75008","tags":["isGym","isGarden","isRatingMichelinThree","isT6CityLegends","isSteamBath","isSpa","isSauna","isPetFriendly","isPalace","isJochenVisited","isHistoric","isHamam","isForbesFiveStars","isFinalCheck","isCoordinatesChecked","isCity","isT6"]},{"name":"Saint James Paris","lat":"48.870473","lon":"2.279791","street":"43, Avenue Bugeaud","zip":"75116","tags":["isGym","isSteamBath","isSpa","isRelaisChateaux","isHistoric","isFinalCheck","isCoordinatesChecked","isCity","isBoutique"]},{"name":"Amastan","lat":"48.8566667","lon":"2.3509871","street":"34 rue Jean Mermoz","zip":null,"tags":["isGarden","isCity","isBoutique"]},{"name":"InterContinental Paris - Le Grand","lat":"48.870631","lon":"2.330293","street":"2 Rue Scribe","zip":"75009","tags":["isGym","isGrandHotel","isSteamBath","isSpa","isSauna","isJochenVisited","isHistoric","isFinalCheck","isCoordinatesChecked","isCity"]},{"name":"Le Fouquet's Paris","lat":"48.871394","lon":"2.301216","street":"46, Avenue George V","zip":"75008","tags":["isGym","isGarden","isSwimmingPoolIndoor","isSwimmingPool","isSteamBath","isSpa","isSauna","isPetFriendly","isLHW","isJochenVisited","isHistoric","isHamam","isFinalCheck","isEco","isCoordinatesChecked","isCity"]}],"Prague":[{"name":"Mandarin Oriental, Prague","lat":"50.084902","lon":"14.405056","street":"Nebovidska 459","zip":"118 00","tags":["isGym","isFormerMonastery","isSteamBath","isSpa","isSmokeFree","isHistoric","isFinalCheck","isCoordinatesChecked","isCity","isBoutique"]},{"name":"Pachtuv Palace","lat":"50.084657","lon":"14.414106","street":"Karolíny Světlé 34","zip":"11000","tags":["isGym","isSmokeFree","isPrivateButlerPart","isPalace","isJochenVisited","isHistoric","isFinalCheck","isCoordinatesChecked","isCity","isBoutique"]},{"name":"Boscolo Prague","lat":"50.086345","lon":"14.433872","street":"Senovazne namesti 13","zip":"110 00","tags":["isGym","isSwimmingPool","isSteamBath","isSpa","isSmokeFree","isJochenVisited","isHistoric","isFinalCheck","isCoordinatesChecked","isCity"]},{"name":"Golden Well Hotel","lat":"50.090877","lon":"14.404541","street":"U Zlate Studne 166/4","zip":"118 01","tags":["isSmokeFree","isJochenVisited","isHistoric","isHill","isFinalCheck","isCoordinatesChecked","isCity","isBoutique"]},{"name":"The Grand Mark Prague","lat":"50.087178","lon":"14.431439","street":"Hybernská 12","zip":null,"tags":["isGarden","isSmokeFree","isPalace","isLHW","isJochenVisited","isHistoric","isFinalCheck","isCoordinatesChecked","isCity","isBoutique"]},{"name":"Augustine, Prague","lat":"50.088887","lon":"14.406505","street":"Letenská 8","zip":"118 00","tags":["isGym","isGarden","isFormerMonastery","isSteamBath","isSpa","isSmokeFree","isSauna","isPrivateButlerPart","isNearbySpaFitness","isJochenVisited","isHistoric","isHamam","isFinalCheck","isCoordinatesChecked","isCity"]},{"name":"Buddha-Bar Hotel Prague","lat":"50.088196","lon":"14.425889","street":"Jakubská 649/8","zip":"11000","tags":["isSmokeFree","isJochenVisited","isHistoric","isFinalCheck","isDesign","isCoordinatesChecked","isCity","isBoutique"]},{"name":"Four Seasons Hotel Prague","lat":"50.087817","lon":"14.41456","street":"Veleslavínova 2a/1098, Praha 1","zip":"110 00","tags":["isGym","isSpa","isSmokeFree","isSauna","isRiver","isJochenVisited","isHistoric","isFinalCheck","isCoordinatesChecked","isCity"]}],"Sofia":[{"name":"Sofia Hotel Balkan, Sofia","lat":"42.697123","lon":"23.322239","street":"5 Sveta Nedelya Square","zip":"1000","tags":["isGym","isSmokeFree","isSauna","isPrivateButlerPart","isJochenVisited","isHistoric","isFinalCheck","isCoordinatesChecked","isCity"]}],"Tel Aviv":[{"name":"Kempinski Hotel Tel Aviv","lat":"0.0","lon":"0.0","street":null,"zip":null,"tags":["isCity"]},{"name":"W Tel Aviv","lat":"0.0","lon":"0.0","street":null,"zip":null,"tags":["isGym","isSwimmingPool","isSpa","isCity"]},{"name":"The Norman Tel Aviv","lat":"32.0660877","lon":"34.775033","street":"23-25 Nachmani St.","zip":"6579441","tags":["isGym","isGarden","isSwimmingPoolOutdoor","isSwimmingPool","isSpa","isSmokeFree","isSLH","isRooftopPool","isRooftopBar","isFinalCheck","isCoordinatesChecked","isCity","isBoutique"]}],"Vienna":[{"name":"Hotel Bristol, Vienna","lat":"48.202618","lon":"16.370218","street":"Kärntner Ring 1","zip":"1015","tags":["isGym","isT6CityLegends","isSmokeFree","isPetFriendly","isJochenVisited","isHistoric","isFinalCheck","isCoordinatesChecked","isCity","isT6"]},{"name":"Park Hyatt Vienna","lat":"48.213546","lon":"16.361134","street":"Am Hof 2","zip":"1010","tags":["isGym","isSwimmingPoolIndoor","isSwimmingPool","isSteamBath","isSpa","isSauna","isPrivateButlerPart","isPetFriendly","isHistoric","isFinalCheck","isCoordinatesChecked","isCity"]},{"name":"Hotel Sans Souci Wien","lat":"48.204684","lon":"16.356596","street":"Burggasse 2","zip":"1070","tags":["isGym","isSwimmingPoolIndoor","isSwimmingPool","isSteamBath","isSpa","isSauna","isPreferredHotels","isHistoric","isFinalCheck","isDesign","isCoordinatesChecked","isCity","isBoutique","isT6"]},{"name":"The Ritz-Carlton, Vienna","lat":"48.202317","lon":"16.376215","street":"Schubertring 5-7","zip":"1010","tags":["isGym","isSwimmingPoolIndoor","isSwimmingPool","isSteamBath","isSpa","isSauna","isRooftopBar","isHistoric","isFinalCheck","isCoordinatesChecked","isCity","isT6"]},{"name":"Palais Hansen Kempinski Vienna","lat":"48.21622","lon":"16.368524","street":"Schottenring 24","zip":"1010","tags":["isGym","isSwimmingPoolIndoor","isSwimmingPool","isSteamBath","isSpa","isSauna","isPalace","isHistoric","isFinalCheck","isCoordinatesChecked","isCity"]},{"name":"ME Vienna","lat":"48.232135","lon":"16.412291","street":"Donau-City-Straße 7","zip":"1220","tags":["isGym","isRooftopBar","isFloorToCeilingWindows","isEco","isDesign","isCoordinatesChecked","isCity"]},{"name":"Grand Hotel Wien","lat":"48.202097","lon":"16.372137","street":"Kärntner Ring 9","zip":"1010","tags":["isGym","isGrandHotel","isT6CityLegends","isLHW","isJochenVisited","isHistoric","isFinalCheck","isCoordinatesChecked","isCity","isT6"]},{"name":"Hotel Sacher Wien","lat":"48.203908","lon":"16.369711","street":"Philharmonikerstraße 4","zip":"1010","tags":["isGym","isGrandHotel","isT6CityLegends","isSteamBath","isSpa","isSauna","isPetFriendly","isLHW","isJochenVisited","isHistoric","isFinalCheck","isCoordinatesChecked","isCity","isT6"]},{"name":"The Ring","lat":"48.20164","lon":"16.371027","street":"Kärntner Ring 8","zip":"1010","tags":["isGym","isSteamBath","isSpa","isSauna","isRooftopSpa","isPreferredHotels","isFinalCheck","isDesign","isCoordinatesChecked","isCity","isBoutique"]},{"name":"Hotel Im Palais Schwarzenberg","lat":"48.2081743","lon":"16.3738189","street":"Schwarzenbergplatz 9","zip":null,"tags":["isCity","isBoutique"]},{"name":"Four Seasons Hotel Vienna","lat":"0.0","lon":"0.0","street":"Riemergasse 7","zip":null,"tags":["isHistoric","isCity"]},{"name":"Palais Coburg Residenz","lat":"48.205807","lon":"16.376628","street":"Coburgbastei 4","zip":"1010","tags":["isGym","isSwimmingPoolIndoor","isSwimmingPool","isSteamBath","isSpa","isSauna","isRooftopSpa","isRatingMichelinTwo","isPalace","isLHW","isHistoric","isFinalCheck","isCoordinatesChecked","isCity","isBoutique"]},{"name":"Andaz Vienna","lat":"48.2081743","lon":"16.3738189","street":null,"zip":null,"tags":["isGym","isSpa","isRooftopBar","isDesign","isCity"]},{"name":"Hotel Imperial, Vienna","lat":"48.201","lon":"16.373","street":"Kärntner Ring 16","zip":"1015","tags":["isGym","isT6CityLegends","isSmokeFree","isPrivateButlerPart","isPetFriendly","isJochenVisited","isHistoric","isFinalCheck","isCoordinatesChecked","isCity","isT6"]}]}